{
    "vehicle": {
        "name": "Hyundai Ioniq 5",
        "battery_kwh": 77.4,
        "range_km": 480,
        "consumption_kwh_per_km": 0.16125
    },
    "charging_stations": [
        {
            "name": "Electra - Nanterre - Premi\u00e8re Classe Paris Ouest",
            "latitude": 48.91888574833234,
            "longitude": 2.2204741470768568,
            "power_kw": 300
        },
        {
            "name": "Electra - Biarritz - Grand Frais",
            "latitude": 43.46688855124984,
            "longitude": -1.5417456693430722,
            "power_kw": 300
        },
        {
            "name": "Electra - Mantes-la-Ville - Grand Frais",
            "latitude": 48.97799561880896,
            "longitude": 1.7216137712105137,
            "power_kw": 300
        },
        {
            "name": "Electra - Senlis - Intermarch\u00e9 Hyper Senlis",
            "latitude": 49.22218271173935,
            "longitude": 2.5902837320197705,
            "power_kw": 400
        },
        {
            "name": "Atlante - Dijon - Del Arte",
            "latitude": 47.35989423271232,
            "longitude": 5.049548030332517,
            "power_kw": 600
        },
        {
            "name": "Maison Osquich",
            "latitude": 43.1997975300479,
            "longitude": -1.0057226297277566,
            "power_kw": 3
        },
        {
            "name": "Tesla Supercharger Abbeville",
            "latitude": 50.099947181218056,
            "longitude": 1.8571750931753286,
            "power_kw": 250
        },
        {
            "name": "Tesla Supercharger Limoges - Avenue des Casseaux",
            "latitude": 45.844386439852315,
            "longitude": 1.2884133519644365,
            "power_kw": 250
        },
        {
            "name": "Mobilize - Renault Vannes",
            "latitude": 47.654651694334916,
            "longitude": -2.737917921195617,
            "power_kw": 22
        },
        {
            "name": "Camping Les Hirondelles ",
            "latitude": 48.1712271694891,
            "longitude": 5.558052946834437,
            "power_kw": 7
        },
        {
            "name": "Carrefour Market - Sassenage",
            "latitude": 45.218160549541835,
            "longitude": 5.660654169598956,
            "power_kw": 3.7
        },
        {
            "name": "Electra - Mitry-Mory - Intermarch\u00e9 Super",
            "latitude": 48.97643523247362,
            "longitude": 2.6138397506097135,
            "power_kw": 300
        },
        {
            "name": "North Shoreline Boulevard",
            "latitude": 44.519772082369514,
            "longitude": 3.9102219581121744,
            "power_kw": 150
        },
        {
            "name": "Electra - Fresnes - Grand Frais",
            "latitude": 48.76349594046505,
            "longitude": 2.3344490699566904,
            "power_kw": 300
        },
        {
            "name": "Ionity - Bordeaux-Artigues",
            "latitude": 44.86833368912218,
            "longitude": -0.4981462825207075,
            "power_kw": 400
        },
        {
            "name": "Tesla Supercharger Roissy - Avenue du Bois de la Pie",
            "latitude": 48.99026928861812,
            "longitude": 2.5141314029895057,
            "power_kw": 250
        },
        {
            "name": "Zunder - La Madeleine-de-Nonancourt",
            "latitude": 48.78002326769297,
            "longitude": 1.2051207156057444,
            "power_kw": 400
        },
        {
            "name": "Electra - Perpignan - Grand Frais",
            "latitude": 42.737498114727515,
            "longitude": 2.8907008345095164,
            "power_kw": 300
        },
        {
            "name": "Tesla Supercharger Goussainville",
            "latitude": 49.0209884285392,
            "longitude": 2.467674427986026,
            "power_kw": 250
        },
        {
            "name": "Fastned - Valence Sud",
            "latitude": 44.906370578314466,
            "longitude": 4.879961267922454,
            "power_kw": 50
        },
        {
            "name": "Place du G\u00e9n\u00e9ral de Gaulle",
            "latitude": 47.91702671567177,
            "longitude": 5.993896917780376,
            "power_kw": null
        },
        {
            "name": "Electra - Saran - Grand Frais",
            "latitude": 47.946127283985476,
            "longitude": 1.8919179229640122,
            "power_kw": 300
        },
        {
            "name": "BP Pulse Aire de Repos de la Courte Ep\u00e9e",
            "latitude": 47.53667642299936,
            "longitude": 0.9620505857753869,
            "power_kw": 22
        },
        {
            "name": "BP Pulse Aire de Repos de la Picardi\u00e8re",
            "latitude": 47.53457712516868,
            "longitude": 0.9624413143277479,
            "power_kw": 22
        },
        {
            "name": "Allego - Burger King Riom",
            "latitude": 45.875264879565094,
            "longitude": 3.1165086446485475,
            "power_kw": 120
        },
        {
            "name": "Electra - Orsay - Grand Frais",
            "latitude": 48.68510752373558,
            "longitude": 2.188316448881551,
            "power_kw": 300
        },
        {
            "name": "Mobilize - Renault Valserh\u00f4ne",
            "latitude": 46.11919103182015,
            "longitude": 5.808806435396377,
            "power_kw": 22
        },
        {
            "name": "Tesla Supercharger Castelnaudary",
            "latitude": 43.29426620158915,
            "longitude": 1.9534268423892627,
            "power_kw": 250
        },
        {
            "name": "Tesla Supercharger Vesoul",
            "latitude": 47.63141737202818,
            "longitude": 6.140269178720473,
            "power_kw": 250
        },
        {
            "name": "Tesla Supercharger Cosne-Cours-sur-Loire",
            "latitude": 47.38358075807082,
            "longitude": 2.917938497339037,
            "power_kw": 250
        },
        {
            "name": "Tesla Supercharger Chilly-Mazarin",
            "latitude": 48.70656051146156,
            "longitude": 2.297582418281536,
            "power_kw": 250
        },
        {
            "name": "SICECO - BAIGNEUX-LES-JUIFS - Parking Salle Commun",
            "latitude": 47.60017790120264,
            "longitude": 4.648541870034819,
            "power_kw": 50
        },
        {
            "name": "Tesla Supercharger Scionzier",
            "latitude": 46.07009280202047,
            "longitude": 6.551000767521714,
            "power_kw": 250
        },
        {
            "name": "Tesla Supercharger Mulhouse - Rue des C\u00e9vennes",
            "latitude": 47.78211697235068,
            "longitude": 7.3869483098762885,
            "power_kw": 250
        },
        {
            "name": "PowerDot - Grand Frais - L'Isle-d'Abeau",
            "latitude": 45.613408087316856,
            "longitude": 5.232812285232285,
            "power_kw": 22
        },
        {
            "name": "Tesla Supercharger Phalsbourg",
            "latitude": 48.77269215205638,
            "longitude": 7.2432475060941215,
            "power_kw": 250
        },
        {
            "name": "LIDL Canet-en-Roussillon ",
            "latitude": 42.701783837841475,
            "longitude": 3.0217303475571953,
            "power_kw": 22
        },
        {
            "name": "Izivia Fast - Mc Donald's - Brie-Comte-Robert",
            "latitude": 48.7016603281744,
            "longitude": 2.59752533908636,
            "power_kw": 22
        },
        {
            "name": "Izivia Fast - Mc Donald's - Avesnes-sur-Helpe",
            "latitude": 50.127489516826046,
            "longitude": 3.931390556227825,
            "power_kw": 22
        },
        {
            "name": "Izivia Fast - Mc Donald's - Olivet",
            "latitude": 47.84559702536973,
            "longitude": 1.917846886799225,
            "power_kw": 22
        },
        {
            "name": "Zunder - Aire de Loiret",
            "latitude": 48.08328600833556,
            "longitude": 2.4698361298495684,
            "power_kw": 200
        },
        {
            "name": "Mobilize - Roye",
            "latitude": 49.70970814559996,
            "longitude": 2.773979369745348,
            "power_kw": 22
        },
        {
            "name": "Allego - Cormontreuil - Darty",
            "latitude": 49.21446905274067,
            "longitude": 4.044394792766752,
            "power_kw": 200
        },
        {
            "name": "Carrefour Energies - Aix-en-Provence Les Milles",
            "latitude": 43.50570639300409,
            "longitude": 5.399149742232339,
            "power_kw": 150
        },
        {
            "name": "Atlante - N\u00eemes - Del Arte",
            "latitude": 43.81907660703206,
            "longitude": 4.354122366434922,
            "power_kw": 300
        },
        {
            "name": "Electra - Livry-Gargan - Lidl",
            "latitude": 48.92569564436354,
            "longitude": 2.548935687499693,
            "power_kw": 300
        },
        {
            "name": "Electra - Quimper - KFC",
            "latitude": 48.01457465862575,
            "longitude": -4.08153846354503,
            "power_kw": 300
        },
        {
            "name": "Allego - Burger King Lesparre-M\u00e9doc",
            "latitude": 45.287567288437884,
            "longitude": -0.9219737828927919,
            "power_kw": 200
        },
        {
            "name": "Electra - Montargis - Carrefour Amilly",
            "latitude": 47.973690283680156,
            "longitude": 2.7351403609243334,
            "power_kw": 200
        },
        {
            "name": "Electra - Athis-Mons - Super U",
            "latitude": 48.70627516202728,
            "longitude": 2.3956963809763465,
            "power_kw": 200
        },
        {
            "name": "Tesla Supercharger Cholet",
            "latitude": 47.079148894092896,
            "longitude": -0.834307382618249,
            "power_kw": 250
        },
        {
            "name": "Tesla Supercharger Le Mans, Rue des Fr\u00e8res Voisin",
            "latitude": 48.03279474792757,
            "longitude": 0.17642122342294897,
            "power_kw": 250
        },
        {
            "name": "Tesla Supercharger Livry-Gargan",
            "latitude": 48.92751690232868,
            "longitude": 2.548519445980105,
            "power_kw": 250
        },
        {
            "name": "Tesla Supercharger Brive-la-Gaillarde",
            "latitude": 45.14681869945289,
            "longitude": 1.4803039248545247,
            "power_kw": 250
        },
        {
            "name": "PowerDot - Briconautes - Saint-Cyprien",
            "latitude": 44.864081054598216,
            "longitude": 1.0418946330509016,
            "power_kw": 22
        },
        {
            "name": "PowerDot - Darty - Bergerac",
            "latitude": 44.83483000247281,
            "longitude": 0.47850765252508154,
            "power_kw": 160
        },
        {
            "name": "PowerDot - Intermarch\u00e9 - Bergerac",
            "latitude": 44.833040680344936,
            "longitude": 0.4778470033525082,
            "power_kw": 22
        },
        {
            "name": "PowerDot - La Foir'Fouille - Bergerac",
            "latitude": 44.83660424176023,
            "longitude": 0.45483644480646035,
            "power_kw": 22
        },
        {
            "name": "PowerDot - Action - Bergerac",
            "latitude": 44.83537775861504,
            "longitude": 0.4512764728294769,
            "power_kw": 160
        },
        {
            "name": "PowerDot - La Boucherie - Saint-Laurent-des-Vignes",
            "latitude": 44.83334079607471,
            "longitude": 0.44086192770146226,
            "power_kw": 22
        },
        {
            "name": "PowerDot - U Express - Pineuilh",
            "latitude": 44.841148487875216,
            "longitude": 0.22756889123047586,
            "power_kw": 22
        },
        {
            "name": "Serge BULTEZ, Le BAUGYTE",
            "latitude": 46.296286201580074,
            "longitude": 4.02868119437278,
            "power_kw": 7
        },
        {
            "name": "Place des Arcades",
            "latitude": 46.0586102526739,
            "longitude": 6.3760611941844445,
            "power_kw": 22
        },
        {
            "name": "Rue des Cournues",
            "latitude": 47.067673964829055,
            "longitude": 5.453606712982264,
            "power_kw": 7
        },
        {
            "name": "McDonald's",
            "latitude": 48.62631994833188,
            "longitude": 4.965923638417962,
            "power_kw": 22
        },
        {
            "name": "PowerDot - Intermarch\u00e9 - Is-sur-Tille",
            "latitude": 47.529972592074074,
            "longitude": 5.115840585429055,
            "power_kw": 100
        },
        {
            "name": "PowerDot - Intermarch\u00e9 - Langres",
            "latitude": 47.870846000001194,
            "longitude": 5.340843000002792,
            "power_kw": 22
        },
        {
            "name": "PowerDot - Super U - Nogent",
            "latitude": 48.03312873264119,
            "longitude": 5.3494883662554,
            "power_kw": 160
        },
        {
            "name": "PowerDot - H\u00f4tel F1 - Chaumont",
            "latitude": 48.0866995565265,
            "longitude": 5.146001063769063,
            "power_kw": 160
        },
        {
            "name": "PowerDot - U Express - Ch\u00e2tenois",
            "latitude": 48.29954432113428,
            "longitude": 5.842787469213249,
            "power_kw": 22
        },
        {
            "name": "PowerDot - Chaussea - Neufchateau",
            "latitude": 48.366495261156786,
            "longitude": 5.707667230466086,
            "power_kw": 100
        },
        {
            "name": "PowerDot - Supermarch\u00e9 Match - Neufch\u00e2teau",
            "latitude": 48.352502973709164,
            "longitude": 5.692557698073074,
            "power_kw": 100
        },
        {
            "name": "PowerDot - Super U - Liffol-le-Grand",
            "latitude": 48.3225969881982,
            "longitude": 5.575923301744297,
            "power_kw": 22
        },
        {
            "name": "PowerDot - Carrefour - Toul",
            "latitude": 48.66420026529829,
            "longitude": 5.887993657183188,
            "power_kw": 200
        },
        {
            "name": "PowerDot - Super U - Toul",
            "latitude": 48.680624308450376,
            "longitude": 5.889447493960915,
            "power_kw": 22
        },
        {
            "name": "PowerDot - Intermarch\u00e9 - \u00c9crouves",
            "latitude": 48.679608644427475,
            "longitude": 5.8723791588522545,
            "power_kw": 50
        },
        {
            "name": "PowerDot - Intermarch\u00e9 - Commercy",
            "latitude": 48.75612661479775,
            "longitude": 5.58605170182534,
            "power_kw": 22
        },
        {
            "name": "PowerDot - Supermarch\u00e9 Match - Commercy (Morelle)",
            "latitude": 48.75915185399114,
            "longitude": 5.589840976117898,
            "power_kw": 160
        },
        {
            "name": "PowerDot - Supermarch\u00e9 Match - Commercy (Rue d'Euville)",
            "latitude": 48.7598660229381,
            "longitude": 5.604646031818447,
            "power_kw": 160
        },
        {
            "name": "PowerDot - La Boucherie - Laon",
            "latitude": 49.570177263368834,
            "longitude": 3.6564251320154426,
            "power_kw": 22
        },
        {
            "name": "PowerDot - Chaussea - Hirson",
            "latitude": 49.90996632511295,
            "longitude": 4.091067798613494,
            "power_kw": 22
        },
        {
            "name": "PowerDot - Intermarch\u00e9 - Vireux-Molhain",
            "latitude": 50.075720492561885,
            "longitude": 4.724045837976973,
            "power_kw": 22
        },
        {
            "name": "PowerDot - Supermarch\u00e9 Match - Charleville-M\u00e9zi\u00e8res",
            "latitude": 49.758098256619036,
            "longitude": 4.726210025417572,
            "power_kw": 160
        },
        {
            "name": "PowerDot - Carrefour - Villers-Semeuse",
            "latitude": 49.73446432657278,
            "longitude": 4.752117605364674,
            "power_kw": 200
        },
        {
            "name": "PowerDot - Carrefour - Verdun",
            "latitude": 49.142729391601904,
            "longitude": 5.4082925543388,
            "power_kw": 50
        },
        {
            "name": "PowerDot - Intermarch\u00e9 - Longuyon",
            "latitude": 49.43144271633503,
            "longitude": 5.616975384297575,
            "power_kw": 22
        },
        {
            "name": "PowerDot - Intermarch\u00e9 - Longwy",
            "latitude": 49.5153405441113,
            "longitude": 5.751237297624016,
            "power_kw": 22
        },
        {
            "name": "PowerDot - Supermarch\u00e9 Match - Villerupt",
            "latitude": 49.470211009333525,
            "longitude": 5.925710039513206,
            "power_kw": 160
        },
        {
            "name": "PowerDot - Super U - Fontoy",
            "latitude": 49.356348699620185,
            "longitude": 5.979743030396094,
            "power_kw": 100
        },
        {
            "name": "PowerDot - Station U - Algrange",
            "latitude": 49.347773224975754,
            "longitude": 6.037933066147048,
            "power_kw": 22
        },
        {
            "name": "PowerDot - McDonald's - Thionville",
            "latitude": 49.35789275762312,
            "longitude": 6.139389628911886,
            "power_kw": 50
        },
        {
            "name": "PowerDot - Supermarch\u00e9 Match - Yutz",
            "latitude": 49.35739126667974,
            "longitude": 6.19140386484105,
            "power_kw": 160
        },
        {
            "name": "PowerDot - Intermarch\u00e9 - Jarny",
            "latitude": 49.16128039644363,
            "longitude": 5.872519666862445,
            "power_kw": 22
        },
        {
            "name": "PowerDot - Supermarch\u00e9 Match - Jarny",
            "latitude": 49.16600243310069,
            "longitude": 5.863087222534091,
            "power_kw": 22
        },
        {
            "name": "PowerDot - Super U - Briey",
            "latitude": 49.25560283663165,
            "longitude": 5.944515777424613,
            "power_kw": 50
        },
        {
            "name": "PowerDot - Chaussea - Val de Briey",
            "latitude": 49.254034930664915,
            "longitude": 5.94873609816068,
            "power_kw": 100
        },
        {
            "name": "PowerDot - Carrefour - Sainte-Marie-aux-Ch\u00eanes",
            "latitude": 49.197021101055384,
            "longitude": 5.993416018902053,
            "power_kw": 200
        },
        {
            "name": "PowerDot - Chaussea - Sainte-Marie-aux-Ch\u00eanes",
            "latitude": 49.19787552744691,
            "longitude": 5.996484414785982,
            "power_kw": 200
        },
        {
            "name": "PowerDot - Chaussea - Valleroy",
            "latitude": 49.21199037045511,
            "longitude": 5.939170691950039,
            "power_kw": 22
        },
        {
            "name": "Atlante - Gra\u00e7ay - La Plaisance Bar-Restaurant",
            "latitude": 47.10556738483871,
            "longitude": 1.8827916302228687,
            "power_kw": 300
        },
        {
            "name": "PowerDot - Supermarch\u00e9 Match - J\u0153uf",
            "latitude": 49.225091424922,
            "longitude": 6.016108096868493,
            "power_kw": 100
        },
        {
            "name": "PowerDot - Marie Blach\u00e8re - Amn\u00e9ville",
            "latitude": 49.255756013800664,
            "longitude": 6.129581509439959,
            "power_kw": 22
        },
        {
            "name": "PowerDot - Buffalo Grill - Amn\u00e9ville",
            "latitude": 49.2465576272383,
            "longitude": 6.1353266671131905,
            "power_kw": 22
        },
        {
            "name": "PowerDot - Carrefour - Mondelange",
            "latitude": 49.26056785288819,
            "longitude": 6.176244680571017,
            "power_kw": 100
        },
        {
            "name": "PowerDot - Super U - Talange",
            "latitude": 49.241905609984855,
            "longitude": 6.172234702263495,
            "power_kw": 22
        },
        {
            "name": "PowerDot - Marques Avenue - Talange",
            "latitude": 49.22998537048542,
            "longitude": 6.180027529299764,
            "power_kw": 22
        },
        {
            "name": "PowerDot - Hotel Campanile - Metz Nord",
            "latitude": 49.14982309329278,
            "longitude": 6.176034780377108,
            "power_kw": 200
        },
        {
            "name": "PowerDot - Carrefour - Metz-Technop\u00f4le",
            "latitude": 49.10621877626272,
            "longitude": 6.227739836251658,
            "power_kw": 24
        },
        {
            "name": "PowerDot - Super U - Montigny-l\u00e8s-Metz",
            "latitude": 49.08793892979338,
            "longitude": 6.156336068221435,
            "power_kw": 100
        },
        {
            "name": "PowerDot - Carrefour - Moulins-l\u00e8s-Metz",
            "latitude": 49.0839661238183,
            "longitude": 6.109518749512972,
            "power_kw": 100
        },
        {
            "name": "PowerDot - Action - Augny",
            "latitude": 49.076575902122386,
            "longitude": 6.105823880074922,
            "power_kw": 22
        },
        {
            "name": "PowerDot - Veterinaire Aunys - Augny",
            "latitude": 49.075008705402496,
            "longitude": 6.1073000680764835,
            "power_kw": 22
        },
        {
            "name": "PowerDot - Intermarch\u00e9 - Pont-\u00e0-Mousson",
            "latitude": 48.920704140956275,
            "longitude": 6.058052578773186,
            "power_kw": 160
        },
        {
            "name": "PowerDot - Supermarch\u00e9 Match - Pont-\u00e0-Mousson",
            "latitude": 48.917968802449025,
            "longitude": 6.06442383646413,
            "power_kw": 22
        },
        {
            "name": "PowerDot - Buffalo Grill - Pont-\u00c0-Mousson",
            "latitude": 48.91028859094055,
            "longitude": 6.038862372979338,
            "power_kw": 22
        },
        {
            "name": "Ionity Treilli\u00e8res",
            "latitude": 47.279346309713674,
            "longitude": -1.5953336441488375,
            "power_kw": 400
        },
        {
            "name": "Tesla Supercharger Les Clayes-sous-Bois",
            "latitude": 48.825559574463085,
            "longitude": 1.96781573744056,
            "power_kw": 250
        },
        {
            "name": "Chargepoint",
            "latitude": 50.30000389335672,
            "longitude": 2.9041596721597216,
            "power_kw": 150
        },
        {
            "name": "PowerDot - Supermarch\u00e9 Match - Champigneulles",
            "latitude": 48.736898553792855,
            "longitude": 6.16285581831778,
            "power_kw": 160
        },
        {
            "name": "PowerDot - Supermarch\u00e9 Match - Malz\u00e9ville",
            "latitude": 48.716309085017485,
            "longitude": 6.175450289109335,
            "power_kw": 160
        },
        {
            "name": "PowerDot - Syst\u00e8me U - Max\u00e9ville",
            "latitude": 48.710544778078116,
            "longitude": 6.173163037420409,
            "power_kw": 22
        },
        {
            "name": "PowerDot - Supermarch\u00e9 Match - Saint-Max",
            "latitude": 48.70176059024146,
            "longitude": 6.212933529783186,
            "power_kw": 100
        },
        {
            "name": "PowerDot - Supermarch\u00e9 Match - Villers-l\u00e8s-Nancy",
            "latitude": 48.671839684180355,
            "longitude": 6.153049430890064,
            "power_kw": 160
        },
        {
            "name": "PowerDot - Restaurant L\u00e9on - Vand\u0153uvre-l\u00e8s-Nancy",
            "latitude": 48.65362080566908,
            "longitude": 6.183971830783776,
            "power_kw": 22
        },
        {
            "name": "PowerDot - But - Houdemont",
            "latitude": 48.643023290879995,
            "longitude": 6.184772116668796,
            "power_kw": 22
        },
        {
            "name": "PowerDot - Carrefour - Nancy Houdemont",
            "latitude": 48.638993654236685,
            "longitude": 6.184326206760147,
            "power_kw": 120
        },
        {
            "name": "PowerDot - Mr. Bricolage - Dombasle-sur-Meurthe",
            "latitude": 48.62337424323894,
            "longitude": 6.348567911332907,
            "power_kw": 22
        },
        {
            "name": "PowerDot - Supermarch\u00e9 Match - Dombasle",
            "latitude": 48.61008535364999,
            "longitude": 6.351454448984441,
            "power_kw": 100
        },
        {
            "name": "PowerDot - Action - Lun\u00e9ville",
            "latitude": 48.58479562685835,
            "longitude": 6.512651785361641,
            "power_kw": 50
        },
        {
            "name": "PowerDot - Mr. Bricolage - Moncel-l\u00e8s-Lun\u00e9ville",
            "latitude": 48.58038908704228,
            "longitude": 6.519114186353136,
            "power_kw": 22
        },
        {
            "name": "PowerDot - Carrefour - Lun\u00e9ville",
            "latitude": 48.57837622072475,
            "longitude": 6.519976646458986,
            "power_kw": 100
        },
        {
            "name": "PowerDot - Chaussea - Moncel-l\u00e8s-Lun\u00e9ville",
            "latitude": 48.578295594646136,
            "longitude": 6.517565222058124,
            "power_kw": 22
        },
        {
            "name": "PowerDot - Supermarch\u00e9 Match - Charmes",
            "latitude": 48.3701904268637,
            "longitude": 6.289948605376594,
            "power_kw": 22
        },
        {
            "name": "Tesla Supercharger Porte-de-Savoie",
            "latitude": 45.503993953327665,
            "longitude": 6.037056646707583,
            "power_kw": 250
        },
        {
            "name": "PowerDot - Boulangerie Jeanne - Charmes",
            "latitude": 48.35957358099523,
            "longitude": 6.304071909177992,
            "power_kw": 22
        },
        {
            "name": "PowerDot - Super U - Thaon-les-Vosges",
            "latitude": 48.26142426910576,
            "longitude": 6.4090702762182445,
            "power_kw": 22
        },
        {
            "name": "PowerDot - Supermarch\u00e9 Match - Thaon-les-Vosges",
            "latitude": 48.24655373986212,
            "longitude": 6.423715559779453,
            "power_kw": 160
        },
        {
            "name": "PowerDot - Basic Fit - Jeuxey",
            "latitude": 48.20186702833928,
            "longitude": 6.477141560782002,
            "power_kw": 22
        },
        {
            "name": "PowerDot - La Boucherie - Epinal",
            "latitude": 48.19850199517791,
            "longitude": 6.475163527661607,
            "power_kw": 22
        },
        {
            "name": "PowerDot - Lavage Label Bulle - Golbey",
            "latitude": 48.192242663254774,
            "longitude": 6.438783179955749,
            "power_kw": 22
        },
        {
            "name": "PowerDot - Supermarch\u00e9 Match - Rambervillers",
            "latitude": 48.341021678910835,
            "longitude": 6.636548537186513,
            "power_kw": 100
        },
        {
            "name": "PowerDot - Intermarch\u00e9 - Rambervillers",
            "latitude": 48.338790680645616,
            "longitude": 6.634866986150541,
            "power_kw": 22
        },
        {
            "name": "PowerDot - Super U - Lemud",
            "latitude": 49.020173113169136,
            "longitude": 6.380377358066312,
            "power_kw": 22
        },
        {
            "name": "PowerDot - Supermarch\u00e9 Match - Ch\u00e2teau-Salins",
            "latitude": 48.82393155250526,
            "longitude": 6.507763018390278,
            "power_kw": 22
        },
        {
            "name": "PowerDot - Supermarch\u00e9 Match - Dieuze",
            "latitude": 48.811865918744644,
            "longitude": 6.714775958423161,
            "power_kw": 22
        },
        {
            "name": "PowerDot - Intermarch\u00e9 - Dieuze",
            "latitude": 48.81851633582542,
            "longitude": 6.7219044917840165,
            "power_kw": 22
        },
        {
            "name": "PowerDot - Supermarch\u00e9 Match - Morhange",
            "latitude": 48.92447430323156,
            "longitude": 6.64499760246963,
            "power_kw": 160
        },
        {
            "name": "PowerDot - Intermarch\u00e9 - Morhange",
            "latitude": 48.93321021290657,
            "longitude": 6.65309173290666,
            "power_kw": 50
        },
        {
            "name": "PowerDot - Syst\u00e8me U - Faulquemont",
            "latitude": 49.04892853633987,
            "longitude": 6.593871488825016,
            "power_kw": 100
        },
        {
            "name": "PowerDot - Marie Blach\u00e8re - Saint-Avold",
            "latitude": 49.09453449293434,
            "longitude": 6.717898503327547,
            "power_kw": 22
        },
        {
            "name": "PowerDot - Carrefour - Longeville-l\u00e8s-Saint-Avold",
            "latitude": 49.11028749456483,
            "longitude": 6.695317274588888,
            "power_kw": 170
        },
        {
            "name": "PowerDot - Marie Blach\u00e8re - Freyming-Merlebach",
            "latitude": 49.14114032103211,
            "longitude": 6.807856657551611,
            "power_kw": 22
        },
        {
            "name": "PowerDot - Marie Blach\u00e8re - Forbach",
            "latitude": 49.19458482322227,
            "longitude": 6.931344194883195,
            "power_kw": 50
        },
        {
            "name": "PowerDot - Super U - Hambach",
            "latitude": 49.08741322192367,
            "longitude": 7.038767072406699,
            "power_kw": 50
        },
        {
            "name": "PowerDot - Carrefour - Sarreguemines",
            "latitude": 49.11757932520666,
            "longitude": 7.095283965054932,
            "power_kw": 160
        },
        {
            "name": "PowerDot - Syst\u00e8me U - Sarralbe",
            "latitude": 48.9849436925937,
            "longitude": 7.026526473291938,
            "power_kw": 160
        },
        {
            "name": "PowerDot - Carrefour - Sarrebourg",
            "latitude": 48.73962376203474,
            "longitude": 7.070782361701731,
            "power_kw": 200
        },
        {
            "name": "PowerDot - Buffalo Grill - Sarrebourg",
            "latitude": 48.73746954664341,
            "longitude": 7.077521132806396,
            "power_kw": 50
        },
        {
            "name": "PowerDot - Supermarch\u00e9 Match - Saverne",
            "latitude": 48.73575499825466,
            "longitude": 7.3651738159369415,
            "power_kw": 200
        },
        {
            "name": "PowerDot - Syst\u00e8me U - Diemeringen",
            "latitude": 48.938452875752546,
            "longitude": 7.1908186491339166,
            "power_kw": 22
        },
        {
            "name": "PowerDot - Super U - Rohrbach-l\u00e8s-Bitche",
            "latitude": 49.04724092252923,
            "longitude": 7.284362674661452,
            "power_kw": 22
        },
        {
            "name": "PowerDot - Bricomarch\u00e9 - Bitche",
            "latitude": 49.04456679575074,
            "longitude": 7.427159929943059,
            "power_kw": 22
        },
        {
            "name": "PowerDot - Supermarch\u00e9 Match - Wissembourg, Peupliers",
            "latitude": 49.029246599153055,
            "longitude": 7.960669451406261,
            "power_kw": 100
        },
        {
            "name": "PowerDot - Supermarch\u00e9 Match - Wissembourg, P\u00e9pini\u00e8re",
            "latitude": 49.026518856139546,
            "longitude": 7.946300938580066,
            "power_kw": 100
        },
        {
            "name": "PowerDot - Supermarch\u00e9 Match - Soultz-sous-For\u00eats",
            "latitude": 48.935645788016046,
            "longitude": 7.883540143705204,
            "power_kw": 160
        },
        {
            "name": "PowerDot - Ibis - Haguenau",
            "latitude": 48.82780625715941,
            "longitude": 7.7565222552140085,
            "power_kw": 22
        },
        {
            "name": "PowerDot - Carrefour - Haguenau",
            "latitude": 48.801871445399684,
            "longitude": 7.835927831200024,
            "power_kw": 22
        },
        {
            "name": "PowerDot - Super U - Bernolsheim",
            "latitude": 48.74736522565016,
            "longitude": 7.686545330227318,
            "power_kw": 22
        },
        {
            "name": "PowerDot - Gifi - Vendenheim",
            "latitude": 48.65770253864318,
            "longitude": 7.728533765705379,
            "power_kw": 150
        },
        {
            "name": "PowerDot - Carrefour - Strasbourg Mundo'",
            "latitude": 48.651552542433734,
            "longitude": 7.725847913328835,
            "power_kw": 100
        },
        {
            "name": "PowerDot - Shopping Promenade Coeur Alsace - Reichstett",
            "latitude": 48.65085291865947,
            "longitude": 7.728806060628017,
            "power_kw": 150
        },
        {
            "name": "PowerDot - Supermarch\u00e9 Match - Bischheim",
            "latitude": 48.612309140840324,
            "longitude": 7.765794435992575,
            "power_kw": 50
        },
        {
            "name": "PowerDot - Maison Rouge - Strasbourg",
            "latitude": 48.58212855556505,
            "longitude": 7.745721211108275,
            "power_kw": 22
        },
        {
            "name": "PowerDot - Supermarch\u00e9 Match - Achenheim",
            "latitude": 48.583184806410344,
            "longitude": 7.6314987492837645,
            "power_kw": 160
        },
        {
            "name": "PowerDot - O'Pizzicato - Entzheim",
            "latitude": 48.541165017921884,
            "longitude": 7.652479029600954,
            "power_kw": 22
        },
        {
            "name": "PowerDot - Holiday Inn - Strasbourg Sud",
            "latitude": 48.510299748556946,
            "longitude": 7.6975842887814,
            "power_kw": 22
        },
        {
            "name": "PowerDot - Carrefour - Dorlisheim",
            "latitude": 48.52751857032504,
            "longitude": 7.496672863575327,
            "power_kw": 120
        },
        {
            "name": "PowerDot - Super U - Russ",
            "latitude": 48.493331882632475,
            "longitude": 7.251488266499905,
            "power_kw": 22
        },
        {
            "name": "PowerDot - Super U - Gertwiller",
            "latitude": 48.41490892043677,
            "longitude": 7.476450530334432,
            "power_kw": 22
        },
        {
            "name": "PowerDot - Intermarch\u00e9 Super - Benfeld",
            "latitude": 48.37464703702889,
            "longitude": 7.589602411651299,
            "power_kw": 22
        },
        {
            "name": "PowerDot - Intermarch\u00e9 Super - S\u00e9lestat",
            "latitude": 48.27508143035115,
            "longitude": 7.46440127552853,
            "power_kw": 120
        },
        {
            "name": "PowerDot - Best Western - S\u00e9lestat",
            "latitude": 48.255494065997624,
            "longitude": 7.423668091699028,
            "power_kw": 22
        },
        {
            "name": "PowerDot - Supermarch\u00e9 Match - Selestat",
            "latitude": 48.249045730510375,
            "longitude": 7.435286598987091,
            "power_kw": 24
        },
        {
            "name": "PowerDot - Super U - Neuve-\u00c9glise",
            "latitude": 48.338205133865614,
            "longitude": 7.316377823716266,
            "power_kw": 22
        },
        {
            "name": "PowerDot - Intermarch\u00e9 - Moyenmoutier",
            "latitude": 48.37794758215529,
            "longitude": 6.89305973727005,
            "power_kw": 22
        },
        {
            "name": "PowerDot - Mr. Bricolage - Saint-Di\u00e9-des-Vosges",
            "latitude": 48.290629344104616,
            "longitude": 6.93804184359783,
            "power_kw": 200
        },
        {
            "name": "PowerDot - Carrefour - Saint-Di\u00e9-des-Vosges",
            "latitude": 48.27363402576293,
            "longitude": 6.966796142499334,
            "power_kw": 200
        },
        {
            "name": "PowerDot - Syst\u00e8me U - Anould",
            "latitude": 48.19304780765273,
            "longitude": 6.949905198976921,
            "power_kw": 200
        },
        {
            "name": "PowerDot - Super U - Pouxeux",
            "latitude": 48.10961643547128,
            "longitude": 6.572505551292579,
            "power_kw": 100
        },
        {
            "name": "PowerDot - Intermarch\u00e9 - Rupt-sur-Moselle",
            "latitude": 47.92213518017468,
            "longitude": 6.660337560880862,
            "power_kw": 22
        },
        {
            "name": "PowerDot - Super U - Vagney",
            "latitude": 48.012001268082145,
            "longitude": 6.714496202542023,
            "power_kw": 50
        },
        {
            "name": "PowerDot - Super U - G\u00e9rardmer",
            "latitude": 48.07624989327704,
            "longitude": 6.884856822571578,
            "power_kw": 160
        },
        {
            "name": "PowerDot - Carrefour - Colmar",
            "latitude": 48.12777961602902,
            "longitude": 7.369931091230455,
            "power_kw": 100
        },
        {
            "name": "PowerDot - Contact H\u00f4tel - Colmar",
            "latitude": 48.08750133713659,
            "longitude": 7.360501113709461,
            "power_kw": 22
        },
        {
            "name": "PowerDot - Espace Commercial Alpha - Colmar",
            "latitude": 48.07947233885491,
            "longitude": 7.3791522808921854,
            "power_kw": 22
        },
        {
            "name": "PowerDot - Centre Commercial la Peniche - Colmar",
            "latitude": 48.08036425757595,
            "longitude": 7.383663982208873,
            "power_kw": 22
        },
        {
            "name": "PowerDot - Ibis - Horbourg-Wihr",
            "latitude": 48.077419198871155,
            "longitude": 7.403081760382179,
            "power_kw": 22
        },
        {
            "name": "PowerDot - Hyper U - Colmar",
            "latitude": 48.063246464673114,
            "longitude": 7.339908059229174,
            "power_kw": 100
        },
        {
            "name": "PowerDot - Mr. Bricolage - Colmar",
            "latitude": 48.06309978799814,
            "longitude": 7.341352534281327,
            "power_kw": 22
        },
        {
            "name": "PowerDot - Intermarch\u00e9 - Volgelsheim",
            "latitude": 48.01121880899308,
            "longitude": 7.535363606548572,
            "power_kw": 22
        },
        {
            "name": "PowerDot - Intermarch\u00e9 - Rouffach",
            "latitude": 47.967215856987764,
            "longitude": 7.302739179530022,
            "power_kw": 22
        },
        {
            "name": "PowerDot - Mr. Bricolage - Issenheim",
            "latitude": 47.9029024820388,
            "longitude": 7.242135546673353,
            "power_kw": 22
        },
        {
            "name": "PowerDot - Mr. Bricolage - Bollwiller",
            "latitude": 47.861959600302214,
            "longitude": 7.256887782654076,
            "power_kw": 22
        },
        {
            "name": "PowerDot - Supermarch\u00e9 Match - Thann",
            "latitude": 47.80805064517841,
            "longitude": 7.105612278282024,
            "power_kw": 160
        },
        {
            "name": "PowerDot - Centre Commercial - Cernay",
            "latitude": 47.79288664813757,
            "longitude": 7.172792802079812,
            "power_kw": 22
        },
        {
            "name": "PowerDot - Ma Jardinerie - Wittenheim",
            "latitude": 47.79827053479491,
            "longitude": 7.3093475486990656,
            "power_kw": 22
        },
        {
            "name": "PowerDot - 123 Pare-Brise - Wittenheim",
            "latitude": 47.7982771091628,
            "longitude": 7.311763149347257,
            "power_kw": 22
        },
        {
            "name": "PowerDot - Best Western - Baldersheim",
            "latitude": 47.80172742124162,
            "longitude": 7.379624855652537,
            "power_kw": 22
        },
        {
            "name": "PowerDot - Boulangerie Feuillette - Sausheim",
            "latitude": 47.77519114187871,
            "longitude": 7.390258028833614,
            "power_kw": 22
        },
        {
            "name": "PowerDot - Ma Jardinerie - Illzach",
            "latitude": 47.771194333680114,
            "longitude": 7.389322848023085,
            "power_kw": 50
        },
        {
            "name": "PowerDot - Super U - Riedisheim",
            "latitude": 47.74778192455207,
            "longitude": 7.358994064152739,
            "power_kw": 100
        },
        {
            "name": "PowerDot - Carrefour - Mulhouse-Dornach",
            "latitude": 47.74049006536211,
            "longitude": 7.2935830965757305,
            "power_kw": 100
        },
        {
            "name": "PowerDot - Super U - Brunstatt-Didenheim",
            "latitude": 47.72678959088313,
            "longitude": 7.320770841430658,
            "power_kw": 100
        },
        {
            "name": "PowerDot - Weldom - Sierentz",
            "latitude": 47.66424589276548,
            "longitude": 7.445717618155868,
            "power_kw": 22
        },
        {
            "name": "PowerDot - Intermarch\u00e9 Super - Bartenheim",
            "latitude": 47.635947267406294,
            "longitude": 7.492711997361994,
            "power_kw": 22
        },
        {
            "name": "PowerDot - Satoriz - Blotzheim",
            "latitude": 47.59306346489146,
            "longitude": 7.5035790283857295,
            "power_kw": 22
        },
        {
            "name": "PowerDot - Weldom - H\u00e9singue",
            "latitude": 47.57810802729972,
            "longitude": 7.5336842110826865,
            "power_kw": 22
        },
        {
            "name": "PowerDot - Supermarch\u00e9 Match - Huningue",
            "latitude": 47.590597942421624,
            "longitude": 7.575626267442544,
            "power_kw": 50
        },
        {
            "name": "PowerDot - Bricomarch\u00e9 - Luxeuil-les-Bains",
            "latitude": 47.81013592662643,
            "longitude": 6.362459695290681,
            "power_kw": 22
        },
        {
            "name": "PowerDot - Jour de F\u00eate - Bessoncourt",
            "latitude": 47.64242323444347,
            "longitude": 6.920587558032139,
            "power_kw": 50
        },
        {
            "name": "PowerDot - Basic Fit - Bessoncourt",
            "latitude": 47.640426836784854,
            "longitude": 6.911273247605891,
            "power_kw": 22
        },
        {
            "name": "PowerDot - Super U - Essert",
            "latitude": 47.63479154548392,
            "longitude": 6.828990604325099,
            "power_kw": 160
        },
        {
            "name": "PowerDot - Best Western - Belfort",
            "latitude": 47.63350198912843,
            "longitude": 6.854324217622889,
            "power_kw": 22
        },
        {
            "name": "PowerDot - Kyriad - Belfort Centre Gare",
            "latitude": 47.628707144003016,
            "longitude": 6.857294582339591,
            "power_kw": 22
        },
        {
            "name": "PowerDot - Ibis - Danjoutin",
            "latitude": 47.61680226781252,
            "longitude": 6.861037337297148,
            "power_kw": 22
        },
        {
            "name": "PowerDot - Carrefour - Belfort-Andelnans",
            "latitude": 47.598948729094275,
            "longitude": 6.861843020058245,
            "power_kw": 100
        },
        {
            "name": "PowerDot - Basic Fit - H\u00e9ricourt",
            "latitude": 47.58189276295309,
            "longitude": 6.7730726319124415,
            "power_kw": 160
        },
        {
            "name": "PowerDot - Action - Lebetain",
            "latitude": 47.49590903283183,
            "longitude": 6.982170389994849,
            "power_kw": 22
        },
        {
            "name": "PowerDot - Carrefour - Montb\u00e9liard",
            "latitude": 47.52821221831829,
            "longitude": 6.8094224322860555,
            "power_kw": 100
        },
        {
            "name": "PowerDot - Intermarch\u00e9 - Montb\u00e9liard",
            "latitude": 47.503465978846265,
            "longitude": 6.792429920456129,
            "power_kw": 22
        },
        {
            "name": "PowerDot - Greet H\u00f4tel - Montb\u00e9liard",
            "latitude": 47.49977457448145,
            "longitude": 6.816955882309685,
            "power_kw": 22
        },
        {
            "name": "PowerDot - Supermarch\u00e9 Match - Lure",
            "latitude": 47.67884300906755,
            "longitude": 6.501727121031422,
            "power_kw": 160
        },
        {
            "name": "PowerDot - Basic Fit - Lure",
            "latitude": 47.67445689192962,
            "longitude": 6.513643348909795,
            "power_kw": 22
        },
        {
            "name": "PowerDot - Carrefour - Vesoul",
            "latitude": 47.62650826491546,
            "longitude": 6.171491238295403,
            "power_kw": 100
        },
        {
            "name": "PowerDot - Brit Hotel Le Vesoul - Pusey",
            "latitude": 47.647275277293176,
            "longitude": 6.141182585379283,
            "power_kw": 22
        },
        {
            "name": "PowerDot - Mr. Bricolage - Arc-l\u00e8s-Gray",
            "latitude": 47.4546547897593,
            "longitude": 5.59498875762506,
            "power_kw": 22
        },
        {
            "name": "PowerDot - Intermarch\u00e9 - Gray",
            "latitude": 47.44875835122349,
            "longitude": 5.5863635387097474,
            "power_kw": 22
        },
        {
            "name": "PowerDot - Intermarch\u00e9 - Mirebeau-sur-B\u00e8ze",
            "latitude": 47.392810665746794,
            "longitude": 5.309805847059465,
            "power_kw": 22
        },
        {
            "name": "PowerDot - Intermarch\u00e9 - Marnay",
            "latitude": 47.287576435037636,
            "longitude": 5.763010070307928,
            "power_kw": 22
        },
        {
            "name": "PowerDot - Kiabi - Besan\u00e7on",
            "latitude": 47.21804447012951,
            "longitude": 5.9508201570229176,
            "power_kw": 100
        },
        {
            "name": "PowerDot - Intermarch\u00e9 - Saint-Vit",
            "latitude": 47.18319343525661,
            "longitude": 5.814762299782728,
            "power_kw": 22
        },
        {
            "name": "PowerDot - Au Bureau - Pontarlier",
            "latitude": 46.90759915621686,
            "longitude": 6.339020716220716,
            "power_kw": 22
        },
        {
            "name": "PowerDot - Buffalo Grill - Pontarlier",
            "latitude": 46.903695552865315,
            "longitude": 6.33087894398443,
            "power_kw": 22
        },
        {
            "name": "PowerDot - Super U - Saint-Laurent-en-Grandvaux",
            "latitude": 46.57191824709619,
            "longitude": 5.95643077956106,
            "power_kw": 22
        },
        {
            "name": "L'Entrep\u00f4t du Bricolage, l'Isle-d'Abeau",
            "latitude": 45.6129534737951,
            "longitude": 5.228258405032079,
            "power_kw": null
        },
        {
            "name": "PowerDot - Grand Frais - Chasse-sur-Rh\u00f4ne",
            "latitude": 45.586626503583204,
            "longitude": 4.785626005122822,
            "power_kw": 200
        },
        {
            "name": "PowerDot - Retail Park des Bouchardes - Cr\u00eaches-sur-Sa\u00f4ne",
            "latitude": 46.25084590593474,
            "longitude": 4.7928487080815785,
            "power_kw": 22
        },
        {
            "name": "PowerDot - Nice Valley - Nice",
            "latitude": 43.70396148935913,
            "longitude": 7.1942320214295705,
            "power_kw": 22
        },
        {
            "name": "PowerDot - Ibis Budget - Mougins",
            "latitude": 43.586505478047,
            "longitude": 7.007846965647104,
            "power_kw": 22
        },
        {
            "name": "PowerDot - Valimmo - Mougins",
            "latitude": 43.61304436176667,
            "longitude": 6.970955823641816,
            "power_kw": 22
        },
        {
            "name": "PowerDot - Soccer - Mougins",
            "latitude": 43.61230489627724,
            "longitude": 6.971980442585846,
            "power_kw": 22
        },
        {
            "name": "PowerDot - Super U - P\u00e9gomas",
            "latitude": 43.59159025880902,
            "longitude": 6.9297971767514355,
            "power_kw": 22
        },
        {
            "name": "PowerDot - Intermarch\u00e9 - Peymeinade",
            "latitude": 43.64460333225105,
            "longitude": 6.888146685092806,
            "power_kw": 22
        },
        {
            "name": "PowerDot - Super U - Pierrefeu-du-Var",
            "latitude": 43.21974815694662,
            "longitude": 6.145104561768676,
            "power_kw": 22
        },
        {
            "name": "PowerDot - K9 Station Service - La Garde",
            "latitude": 43.14500500187202,
            "longitude": 6.038470206687293,
            "power_kw": 22
        },
        {
            "name": "PowerDot - Basic Fit - La Valette-du-Var",
            "latitude": 43.13729882571141,
            "longitude": 6.004230004699934,
            "power_kw": 22
        },
        {
            "name": "PowerDot - Darty - La Valette-du-Var",
            "latitude": 43.13576168792045,
            "longitude": 5.999117081574468,
            "power_kw": 22
        },
        {
            "name": "PowerDot - Super U - Bandol",
            "latitude": 43.14768341938836,
            "longitude": 5.764012589383697,
            "power_kw": 50
        },
        {
            "name": "PowerDot - Centre Commercial de l'Ancre Marine - La Ciotat",
            "latitude": 43.18994010698455,
            "longitude": 5.602189641288987,
            "power_kw": 22
        },
        {
            "name": "PowerDot - Intermarch\u00e9 - La Destrousse",
            "latitude": 43.389370894436865,
            "longitude": 5.597345674060762,
            "power_kw": 160
        },
        {
            "name": "PowerDot - Parking Giratoire Souque N\u00e8gre - La Destrousse",
            "latitude": 43.38955198142875,
            "longitude": 5.597762420243498,
            "power_kw": 22
        },
        {
            "name": "PowerDot - Garage Renault Dacia - La Destrousse",
            "latitude": 43.388297515965974,
            "longitude": 5.599081950560617,
            "power_kw": 160
        },
        {
            "name": "PowerDot - Parking Giratoire Route des Vignerons - La Destrousse",
            "latitude": 43.383740441039265,
            "longitude": 5.602147868917086,
            "power_kw": 160
        },
        {
            "name": "PowerDot - Supeco - Roquevaire",
            "latitude": 43.337935123598925,
            "longitude": 5.599808414149152,
            "power_kw": 22
        },
        {
            "name": "PowerDot - Basic Fit - Roquevaire",
            "latitude": 43.336621064097216,
            "longitude": 5.59936295437592,
            "power_kw": 100
        },
        {
            "name": "PowerDot - Electro Dep\u00f4t - Marseille",
            "latitude": 43.28983895343205,
            "longitude": 5.489357323321656,
            "power_kw": 22
        },
        {
            "name": "PowerDot - Ibis Budget - Marseille La Valentine",
            "latitude": 43.30012595765723,
            "longitude": 5.474912333135535,
            "power_kw": 160
        },
        {
            "name": "PowerDot - Netto - Marseille",
            "latitude": 43.3271819475232,
            "longitude": 5.383577228232298,
            "power_kw": 100
        },
        {
            "name": "PowerDot - Basic Fit - Martigues",
            "latitude": 43.409872064941396,
            "longitude": 5.023887658057447,
            "power_kw": 22
        },
        {
            "name": "PowerDot - Jacques Bana Coiffure - Saint-Mitre-les-Remparts",
            "latitude": 43.44028045711923,
            "longitude": 5.036623210119274,
            "power_kw": 160
        },
        {
            "name": "PowerDot - Karine - Fos-sur-Mer",
            "latitude": 43.4594255165959,
            "longitude": 4.941345187793104,
            "power_kw": 22
        },
        {
            "name": "Avenue Henri Barbusse",
            "latitude": 45.597068245268986,
            "longitude": 5.268462613417341,
            "power_kw": 22
        },
        {
            "name": "Royal Bourgoin",
            "latitude": 45.59584455538388,
            "longitude": 5.269134981849106,
            "power_kw": null
        },
        {
            "name": "PowerDot - Chaussea - Istres",
            "latitude": 43.49845208354779,
            "longitude": 4.976699786725931,
            "power_kw": 160
        },
        {
            "name": "PowerDot - H\u00f4tel Ibis - Salon de Provence Sud",
            "latitude": 43.62790171771229,
            "longitude": 5.114468914836152,
            "power_kw": 22
        },
        {
            "name": "PowerDot - Ibis Styles - Pertuis Luberon",
            "latitude": 43.675821207858064,
            "longitude": 5.496612650687325,
            "power_kw": 22
        },
        {
            "name": "PowerDot - Ibis Budget - Manosque",
            "latitude": 43.80862350063063,
            "longitude": 5.813779529475937,
            "power_kw": 22
        },
        {
            "name": "PowerDot - Super U - Veynes",
            "latitude": 44.53644064210087,
            "longitude": 5.831637559865612,
            "power_kw": 22
        },
        {
            "name": "PowerDot - Ibis - Gap",
            "latitude": 44.55933460687956,
            "longitude": 6.084242305068187,
            "power_kw": 22
        },
        {
            "name": "PowerDot - Marie Blach\u00e8re - Brian\u00e7on",
            "latitude": 44.88366226079498,
            "longitude": 6.626864153209567,
            "power_kw": 22
        },
        {
            "name": "PowerDot - H\u00f4tel F1 - Chamb\u00e9ry",
            "latitude": 45.59495759636681,
            "longitude": 5.889678258778531,
            "power_kw": 160
        },
        {
            "name": "PowerDot - Ekosport - Chambery",
            "latitude": 45.604118034955235,
            "longitude": 5.891114594653914,
            "power_kw": 150
        },
        {
            "name": "PowerDot - Lidl - Drumettaz-Clarafond",
            "latitude": 45.661030515293845,
            "longitude": 5.9096507036667845,
            "power_kw": 22
        },
        {
            "name": "PowerDot - Domaine de Marlioz - Aix-les-Bains",
            "latitude": 45.67524192303921,
            "longitude": 5.908997123686959,
            "power_kw": 150
        },
        {
            "name": "PowerDot - Ibis Budget - Gr\u00e9sy-sur-Aix",
            "latitude": 45.718214637784854,
            "longitude": 5.925868079097427,
            "power_kw": 200
        },
        {
            "name": "PowerDot - Satoriz - Albertville",
            "latitude": 45.65653207537892,
            "longitude": 6.370283360002986,
            "power_kw": 50
        },
        {
            "name": "PowerDot - Big Sky Hotel & Spa - Chamonix",
            "latitude": 45.89918272169734,
            "longitude": 6.828825615128039,
            "power_kw": 22
        },
        {
            "name": "PowerDot - Centre Commercial Arcal'Oz Seynod - Annecy",
            "latitude": 45.87887828899116,
            "longitude": 6.094812674056243,
            "power_kw": 50
        },
        {
            "name": "PowerDot - H\u00f4tel Premi\u00e8re Classe - Annecy Cran-Gevrier",
            "latitude": 45.89495714293503,
            "longitude": 6.109122780478856,
            "power_kw": 22
        },
        {
            "name": "PowerDot - La Cantine Bouillon - Epagny Metz-Tessy",
            "latitude": 45.93325427793806,
            "longitude": 6.081439454053793,
            "power_kw": 50
        },
        {
            "name": "PowerDot - Magasin Satoriz - Epagny Metz-Tessy",
            "latitude": 45.936646208201154,
            "longitude": 6.077628262603639,
            "power_kw": 22
        },
        {
            "name": "PowerDot - Action - Annemasse",
            "latitude": 46.196546364410125,
            "longitude": 6.262101736370141,
            "power_kw": 22
        },
        {
            "name": "PowerDot - H\u00f4tel F1 - Saint-Cergues",
            "latitude": 46.22316214766184,
            "longitude": 6.312574553660056,
            "power_kw": 22
        },
        {
            "name": "PowerDot - KFC - Anthy-sur-L\u00e9man",
            "latitude": 46.35255187603917,
            "longitude": 6.438635815201792,
            "power_kw": 22
        },
        {
            "name": "PowerDot - Grand Frais - Echirolles",
            "latitude": 45.15078490547984,
            "longitude": 5.712414753310327,
            "power_kw": 240
        },
        {
            "name": "PowerDot - Chaussea - \u00c9chirolles",
            "latitude": 45.15010564653363,
            "longitude": 5.694387024178582,
            "power_kw": 22
        },
        {
            "name": "PowerDot - Magasin Satoriz - \u00c9chirolles",
            "latitude": 45.151882666406294,
            "longitude": 5.695574199240127,
            "power_kw": 200
        },
        {
            "name": "PowerDot - Grand Frais - Seyssins",
            "latitude": 45.16087011163526,
            "longitude": 5.695289126461944,
            "power_kw": 200
        },
        {
            "name": "PowerDot - Orchestra - Saint-\u00c9gr\u00e8ve",
            "latitude": 45.238553145583865,
            "longitude": 5.669413039029791,
            "power_kw": 22
        },
        {
            "name": "PowerDot - Ibis Styles - Crolles",
            "latitude": 45.27186797490319,
            "longitude": 5.889809109210773,
            "power_kw": 22
        },
        {
            "name": "PowerDot - Marie Blach\u00e8re - Coublevie",
            "latitude": 45.3536685692807,
            "longitude": 5.597588725467858,
            "power_kw": 22
        },
        {
            "name": "PowerDot - Intermarch\u00e9 - Le Pont-de-Beauvoisin",
            "latitude": 45.529773888730745,
            "longitude": 5.684412239113044,
            "power_kw": 50
        },
        {
            "name": "PowerDot - Intersport - Le Pont-de-Beauvoisin",
            "latitude": 45.529363051060955,
            "longitude": 5.68930780249616,
            "power_kw": 160
        },
        {
            "name": "PowerDot - Weldom La Tour du Pin - Saint-Clair-de-la-Tour",
            "latitude": 45.56843518072617,
            "longitude": 5.457165701807071,
            "power_kw": 160
        },
        {
            "name": "PowerDot - Le Saint-Jean - Saint-Jean-de-Soudain",
            "latitude": 45.568214405207215,
            "longitude": 5.430937864751513,
            "power_kw": 22
        },
        {
            "name": "PowerDot - Stokomani - Bourgoin-Jallieu",
            "latitude": 45.5902574866636,
            "longitude": 5.247113422357529,
            "power_kw": 22
        },
        {
            "name": "PowerDot - Mr. Bricolage - L'Arbresle",
            "latitude": 45.82555946707694,
            "longitude": 4.60607563234953,
            "power_kw": 22
        },
        {
            "name": "PowerDot - Intermarch\u00e9 - Rillieux-la-Pape",
            "latitude": 45.81863762425962,
            "longitude": 4.903249232096982,
            "power_kw": 22
        },
        {
            "name": "PowerDot - Boulanger - Limonest",
            "latitude": 45.819465939630646,
            "longitude": 4.770894846814713,
            "power_kw": 160
        },
        {
            "name": "PowerDot - Mobalpa - Champagne-au-Mont-d'Or",
            "latitude": 45.8045365322285,
            "longitude": 4.781929910737972,
            "power_kw": 100
        },
        {
            "name": "PowerDot - Genae & Ange - Ecully",
            "latitude": 45.786487654490884,
            "longitude": 4.782203298535251,
            "power_kw": 22
        },
        {
            "name": "PowerDot - Mr. Bricolage - Craponne",
            "latitude": 45.74772837106488,
            "longitude": 4.73878930486967,
            "power_kw": 160
        },
        {
            "name": "PowerDot - H\u00f4tel F1 - Oullins",
            "latitude": 45.71512552777136,
            "longitude": 4.820293699563081,
            "power_kw": 160
        },
        {
            "name": "PowerDot - H\u00f4tel F1 - Saint-Priest",
            "latitude": 45.705291408169614,
            "longitude": 4.912588272548646,
            "power_kw": 160
        },
        {
            "name": "PowerDot - H\u00f4tel Saint-Fons",
            "latitude": 45.69000805211934,
            "longitude": 4.860958416533663,
            "power_kw": 22
        },
        {
            "name": "PowerDot - H\u00f4tel F1 - Solaize",
            "latitude": 45.63760977037941,
            "longitude": 4.823836140101321,
            "power_kw": 22
        },
        {
            "name": "PowerDot - KFC - Andr\u00e9zieux",
            "latitude": 45.52404719771522,
            "longitude": 4.2952413996702035,
            "power_kw": 22
        },
        {
            "name": "PowerDot - Centre Commercial de L'Arche - La Fouillouse",
            "latitude": 45.48334672527048,
            "longitude": 4.344091512723935,
            "power_kw": 22
        },
        {
            "name": "PowerDot - KFC - Saint-Etienne Villars",
            "latitude": 45.476327796109985,
            "longitude": 4.348275000132844,
            "power_kw": 22
        },
        {
            "name": "PowerDot - H\u00f4tel F1 - Saint-\u00c9tienne",
            "latitude": 45.45937205692263,
            "longitude": 4.396312632268064,
            "power_kw": 160
        },
        {
            "name": "PowerDot - Ibis Budget - Saint-\u00c9tienne Stade",
            "latitude": 45.45586248080042,
            "longitude": 4.401858178328894,
            "power_kw": 22
        },
        {
            "name": "PowerDot - Centrakor - Sorbiers",
            "latitude": 45.48082397657109,
            "longitude": 4.444398274078594,
            "power_kw": 22
        },
        {
            "name": "PowerDot - Super U - L'Horme",
            "latitude": 45.483546899270976,
            "longitude": 4.53353121060843,
            "power_kw": 100
        },
        {
            "name": "PowerDot - Boucherie Bayle - La Grand-Croix",
            "latitude": 45.50003664474659,
            "longitude": 4.566935631106503,
            "power_kw": 22
        },
        {
            "name": "PowerDot - Keepcool Firminy - Unieux",
            "latitude": 45.39287934342599,
            "longitude": 4.2681128029643105,
            "power_kw": 22
        },
        {
            "name": "PowerDot - Sport 2000 - Firminy",
            "latitude": 45.39006802851668,
            "longitude": 4.2982623646501,
            "power_kw": 50
        },
        {
            "name": "PowerDot - Mercure - Chanas",
            "latitude": 45.31671362897936,
            "longitude": 4.8099539606935195,
            "power_kw": 160
        },
        {
            "name": "PowerDot - Intermarch\u00e9 - Anneyron",
            "latitude": 45.274308660690366,
            "longitude": 4.896979828656299,
            "power_kw": 22
        },
        {
            "name": "PowerDot - Mr. Bricolage - Dav\u00e9zieux",
            "latitude": 45.25609274806763,
            "longitude": 4.69097663305547,
            "power_kw": 200
        },
        {
            "name": "PowerDot - Intermarch\u00e9 - Retournac",
            "latitude": 45.2107352411206,
            "longitude": 4.030010521828899,
            "power_kw": 22
        },
        {
            "name": "PowerDot - Grand Frais - Brives-Charensac",
            "latitude": 45.05035548465008,
            "longitude": 3.913045056674491,
            "power_kw": 200
        },
        {
            "name": "PowerDot - Intermarch\u00e9 & McDonald\u2019s - Soyons",
            "latitude": 44.91828342166173,
            "longitude": 4.861430994764078,
            "power_kw": 50
        },
        {
            "name": "PowerDot - Parc Commercial de la Frugi\u00e8re - Privas",
            "latitude": 44.71826902096237,
            "longitude": 4.606257409687942,
            "power_kw": 22
        },
        {
            "name": "PowerDot - Action Noz - Privas",
            "latitude": 44.71607890932958,
            "longitude": 4.609764503482211,
            "power_kw": 50
        },
        {
            "name": "PowerDot - Action - Aubenas",
            "latitude": 44.61787500661097,
            "longitude": 4.407331163743493,
            "power_kw": 22
        },
        {
            "name": "PowerDot - McDonald's - Aubenas",
            "latitude": 44.61612227796107,
            "longitude": 4.403683539486451,
            "power_kw": 22
        },
        {
            "name": "PowerDot - Marie Blach\u00e8re - Bollene",
            "latitude": 44.32499717104335,
            "longitude": 4.741845762863477,
            "power_kw": 22
        },
        {
            "name": "PowerDot - Mr. Bricolage - Pont-Saint-Esprit",
            "latitude": 44.239481723304806,
            "longitude": 4.638373378476331,
            "power_kw": 100
        },
        {
            "name": "PowerDot - Marie Blach\u00e8re - Bagnols-sur-C\u00e8ze",
            "latitude": 44.15508964467753,
            "longitude": 4.61565704199711,
            "power_kw": 22
        },
        {
            "name": "PowerDot - Basic Fit - Orange",
            "latitude": 44.117596268352145,
            "longitude": 4.839768172546087,
            "power_kw": 22
        },
        {
            "name": "PowerDot - Centre Commercial les Vignes - Orange",
            "latitude": 44.11094372471655,
            "longitude": 4.8520054419655025,
            "power_kw": 100
        },
        {
            "name": "PowerDot - Aldi - Carpentras",
            "latitude": 44.04989948911643,
            "longitude": 5.036234445056039,
            "power_kw": 22
        },
        {
            "name": "PowerDot - U Express - Monteux",
            "latitude": 44.03450478216732,
            "longitude": 4.99343577557886,
            "power_kw": 100
        },
        {
            "name": "PowerDot - Restaurant La Mie C\u00e2line - Sorgues",
            "latitude": 44.00095438490774,
            "longitude": 4.878647660313959,
            "power_kw": 22
        },
        {
            "name": "PowerDot - Carl's Jr. - Le Pontet",
            "latitude": 43.978844967224546,
            "longitude": 4.876450177135212,
            "power_kw": 22
        },
        {
            "name": "PowerDot - Ekosport - Le Pontet",
            "latitude": 43.97478763798213,
            "longitude": 4.858464096780949,
            "power_kw": 22
        },
        {
            "name": "PowerDot - Syst\u00e8me U - Le Pontet",
            "latitude": 43.957382191326644,
            "longitude": 4.850915733700958,
            "power_kw": 100
        },
        {
            "name": "PowerDot - KFC - Arles",
            "latitude": 43.66653422917918,
            "longitude": 4.631325223621047,
            "power_kw": 22
        },
        {
            "name": "PowerDot - Shopping Promenade - Arles",
            "latitude": 43.70441845069536,
            "longitude": 4.643283367386175,
            "power_kw": 22
        },
        {
            "name": "PowerDot - Grand Frais - N\u00eemes",
            "latitude": 43.81215787312186,
            "longitude": 4.371226501224442,
            "power_kw": 22
        },
        {
            "name": "PowerDot - Carr\u00e9 Sud - N\u00eemes",
            "latitude": 43.80943820061961,
            "longitude": 4.359348323782342,
            "power_kw": 50
        },
        {
            "name": "PowerDot - KFC - N\u00eemes",
            "latitude": 43.81878969102459,
            "longitude": 4.349737580319015,
            "power_kw": 22
        },
        {
            "name": "PowerDot - Intermarch\u00e9 Super - Marguerittes",
            "latitude": 43.85973558408401,
            "longitude": 4.432703188123355,
            "power_kw": 50
        },
        {
            "name": "PowerDot - Marie Blach\u00e8re - Uz\u00e8s",
            "latitude": 43.999401380507464,
            "longitude": 4.414852019301975,
            "power_kw": 22
        },
        {
            "name": "PowerDot - Carrefour - Al\u00e8s",
            "latitude": 44.11285119545573,
            "longitude": 4.0958028889901925,
            "power_kw": 22
        },
        {
            "name": "PowerDot - Marie Blach\u00e8re - Al\u00e8s",
            "latitude": 44.116207444367745,
            "longitude": 4.09611936885608,
            "power_kw": 100
        },
        {
            "name": "PowerDot - Mr. Bricolage - Al\u00e8s",
            "latitude": 44.133827585198844,
            "longitude": 4.105390059634601,
            "power_kw": 22
        },
        {
            "name": "PowerDot - Super U - Al\u00e8s",
            "latitude": 44.14090621390383,
            "longitude": 4.090317137953434,
            "power_kw": 50
        },
        {
            "name": "PowerDot - Syst\u00e8me U - Saint-Laurent-d'Aigouze",
            "latitude": 43.6291768071321,
            "longitude": 4.192316081350896,
            "power_kw": 22
        },
        {
            "name": "PowerDot - Super U - Aimargues",
            "latitude": 43.69290724035531,
            "longitude": 4.2033839312387045,
            "power_kw": 100
        },
        {
            "name": "PowerDot - Boulangerie Ange - Lunel",
            "latitude": 43.677990717089955,
            "longitude": 4.117142802795229,
            "power_kw": 100
        },
        {
            "name": "PowerDot - Norauto - Le Cr\u00e8s",
            "latitude": 43.64286093897451,
            "longitude": 3.943598555621975,
            "power_kw": 22
        },
        {
            "name": "PowerDot - Novotel - Montpellier",
            "latitude": 43.589397697081324,
            "longitude": 3.892842796783839,
            "power_kw": 22
        },
        {
            "name": "PowerDot - KFC - Montpellier",
            "latitude": 43.586558397416866,
            "longitude": 3.890579670072384,
            "power_kw": 22
        },
        {
            "name": "PowerDot - Zone Commerciale - P\u00e9zenas",
            "latitude": 43.452552012225425,
            "longitude": 3.418755307363199,
            "power_kw": 22
        },
        {
            "name": "PowerDot - Ibis - Beziers",
            "latitude": 43.334349112491935,
            "longitude": 3.278490053100086,
            "power_kw": 160
        },
        {
            "name": "PowerDot - Auchan - B\u00e9ziers",
            "latitude": 43.34500383839409,
            "longitude": 3.2410156778867076,
            "power_kw": 22
        },
        {
            "name": "PowerDot - But - Mende",
            "latitude": 44.51459634198491,
            "longitude": 3.4759694889512502,
            "power_kw": 22
        },
        {
            "name": "PowerDot - Lumicenter - S\u00e9bazac-Concour\u00e8s",
            "latitude": 44.40054516372061,
            "longitude": 2.6056713551162147,
            "power_kw": 22
        },
        {
            "name": "PowerDot - Le G\u00e9ant du Meuble - S\u00e9bazac",
            "latitude": 44.39689661732902,
            "longitude": 2.6053056552869975,
            "power_kw": 22
        },
        {
            "name": "PowerDot - Balladins - Villefranche-de-Rouergue",
            "latitude": 44.36174035813613,
            "longitude": 2.0327243448614354,
            "power_kw": 22
        },
        {
            "name": "PowerDot - Action - Villefranche-de-Rouergue",
            "latitude": 44.35877562243908,
            "longitude": 2.0270183309305594,
            "power_kw": 100
        },
        {
            "name": "PowerDot - Intermarch\u00e9 - Carmaux",
            "latitude": 44.052441744696495,
            "longitude": 2.1598467798938827,
            "power_kw": 50
        },
        {
            "name": "PowerDot - Maison de la Presse Tabac Arago - Albi",
            "latitude": 43.928925651255696,
            "longitude": 2.1944200474779336,
            "power_kw": 50
        },
        {
            "name": "PowerDot - Intermarch\u00e9 - Labrugui\u00e8re",
            "latitude": 43.547790394669136,
            "longitude": 2.273467287241033,
            "power_kw": 200
        },
        {
            "name": "PowerDot - Mr. Bricolage - Castres",
            "latitude": 43.588893036337936,
            "longitude": 2.270354070342705,
            "power_kw": 22
        },
        {
            "name": "PowerDot - Netto - Graulhet",
            "latitude": 43.76717577545321,
            "longitude": 1.9957804811565438,
            "power_kw": 22
        },
        {
            "name": "PowerDot - Bricomarch\u00e9 - Graulhet",
            "latitude": 43.76059739173243,
            "longitude": 1.970801276685279,
            "power_kw": 22
        },
        {
            "name": "PowerDot - Bricomarch\u00e9 - Lavaur",
            "latitude": 43.70672365179979,
            "longitude": 1.803749350284079,
            "power_kw": 22
        },
        {
            "name": "PowerDot - Intermarch\u00e9 Super - Gratentour",
            "latitude": 43.713991630066715,
            "longitude": 1.4183676240530758,
            "power_kw": 22
        },
        {
            "name": "PowerDot - Super U - Fonbeauzard",
            "latitude": 43.6810123732341,
            "longitude": 1.449248903217267,
            "power_kw": 160
        },
        {
            "name": "PowerDot - Intermarch\u00e9 - L'Union",
            "latitude": 43.65514652759899,
            "longitude": 1.4710059815458862,
            "power_kw": 22
        },
        {
            "name": "PowerDot - Intermarch\u00e9 Super - Saint-Jean",
            "latitude": 43.64947476718805,
            "longitude": 1.5071216503002915,
            "power_kw": 100
        },
        {
            "name": "PowerDot - Super U - Montrab\u00e9",
            "latitude": 43.64480198735296,
            "longitude": 1.5335296921939516,
            "power_kw": 22
        },
        {
            "name": "PowerDot - Bureau Vall\u00e9e - L\u2019Union",
            "latitude": 43.636200402296225,
            "longitude": 1.4965902637528643,
            "power_kw": 22
        },
        {
            "name": "PowerDot - Ibis - Toulouse Purpan",
            "latitude": 43.61372222468867,
            "longitude": 1.3968954209281037,
            "power_kw": 22
        },
        {
            "name": "PowerDot - Stockobox - L\u00e9guevin",
            "latitude": 43.60298069595157,
            "longitude": 1.2612147375718905,
            "power_kw": 22
        },
        {
            "name": "PowerDot - Intermarch\u00e9 - Plaisance-du-Touch",
            "latitude": 43.56986741402321,
            "longitude": 1.3094668225037367,
            "power_kw": 50
        },
        {
            "name": "PowerDot - B&M - Saint-Orens",
            "latitude": 43.56524922994677,
            "longitude": 1.516417683877762,
            "power_kw": 120
        },
        {
            "name": "PowerDot - Restaurant Fujin - Portet-sur-Garonne",
            "latitude": 43.53511532890036,
            "longitude": 1.3971384420023014,
            "power_kw": 22
        },
        {
            "name": "PowerDot - D\u00e9griffstock - Portet-sur-Garonne",
            "latitude": 43.53488357056614,
            "longitude": 1.4002114115163522,
            "power_kw": 22
        },
        {
            "name": "PowerDot - Intermarch\u00e9 - Lombez",
            "latitude": 43.47014629312366,
            "longitude": 0.9230779674414862,
            "power_kw": 22
        },
        {
            "name": "PowerDot - Intermarch\u00e9 - Saint-Lys",
            "latitude": 43.511900989655516,
            "longitude": 1.1895752844910703,
            "power_kw": 22
        },
        {
            "name": "PowerDot - Super U - Prades",
            "latitude": 42.625308137402584,
            "longitude": 2.428857376672795,
            "power_kw": 22
        },
        {
            "name": "PowerDot - R\u00e9sidence Le Catalogne - Am\u00e9lie-les-Bains-Palalda",
            "latitude": 42.4806638842355,
            "longitude": 2.671637411523534,
            "power_kw": 22
        },
        {
            "name": "PowerDot - Mr. Bricolage - C\u00e9ret",
            "latitude": 42.501149309293396,
            "longitude": 2.7594013325660853,
            "power_kw": 22
        },
        {
            "name": "PowerDot - E.Leclerc - Le Boulou",
            "latitude": 42.530358656822074,
            "longitude": 2.8383404305515114,
            "power_kw": 22
        },
        {
            "name": "PowerDot - Mr. Bricolage - Laroque-des-Alb\u00e8res",
            "latitude": 42.54772727494404,
            "longitude": 2.9431135546124096,
            "power_kw": 22
        },
        {
            "name": "PowerDot - Intermarch\u00e9 - Llupia",
            "latitude": 42.625602505566604,
            "longitude": 2.7674287893179326,
            "power_kw": 22
        },
        {
            "name": "PowerDot - Super U - Ille-sur-T\u00eat",
            "latitude": 42.67556042618105,
            "longitude": 2.6345951097941906,
            "power_kw": 22
        },
        {
            "name": "PowerDot - Netto - Elne",
            "latitude": 42.6050619216968,
            "longitude": 2.978556975218112,
            "power_kw": 100
        },
        {
            "name": "PowerDot - Intermarch\u00e9 - Pollestres",
            "latitude": 42.641106593176744,
            "longitude": 2.876286925460704,
            "power_kw": 22
        },
        {
            "name": "PowerDot - Brit Hotel - Perpignan",
            "latitude": 42.659610359346004,
            "longitude": 2.8846899501743337,
            "power_kw": 160
        },
        {
            "name": "PowerDot - Mondial Tissus - Perpignan",
            "latitude": 42.675473038520295,
            "longitude": 2.8894608604230143,
            "power_kw": 22
        },
        {
            "name": "PowerDot - Chaussea - Perpignan",
            "latitude": 42.68002055164601,
            "longitude": 2.8926579501439846,
            "power_kw": 22
        },
        {
            "name": "PowerDot - KFC - Perpignan",
            "latitude": 42.68114927196197,
            "longitude": 2.892685732933728,
            "power_kw": 50
        },
        {
            "name": "PowerDot - E. Leclerc - Espace Perpignan Sud",
            "latitude": 42.687426846706444,
            "longitude": 2.8836128639338767,
            "power_kw": 50
        },
        {
            "name": "PowerDot - H\u00f4tel F1 - Perpignan",
            "latitude": 42.685183357117324,
            "longitude": 2.863781147457189,
            "power_kw": 100
        },
        {
            "name": "PowerDot - Ibis - Perpignan",
            "latitude": 42.68085589982957,
            "longitude": 2.852753393156263,
            "power_kw": 100
        },
        {
            "name": "PowerDot - Carr\u00e9 d'Or - Perpignan",
            "latitude": 42.70191928013503,
            "longitude": 2.94008691510453,
            "power_kw": 100
        },
        {
            "name": "PowerDot - Intermarch\u00e9 - Canet-en-Roussillon",
            "latitude": 42.706411658382336,
            "longitude": 3.01416228687242,
            "power_kw": 22
        },
        {
            "name": "PowerDot - E. Leclerc Espace Polygone - Perpignan",
            "latitude": 42.738874987135944,
            "longitude": 2.892290322646204,
            "power_kw": 50
        },
        {
            "name": "PowerDot - Bricopro Bricolage - Saint-Laurent-de-la-Salanque",
            "latitude": 42.77337885829539,
            "longitude": 3.01573823550234,
            "power_kw": 22
        },
        {
            "name": "PowerDot - KFC - Rivesaltes",
            "latitude": 42.775774149778385,
            "longitude": 2.9090141915399954,
            "power_kw": 100
        },
        {
            "name": "PowerDot - Novotel - Perpignan Nord",
            "latitude": 42.782144375799874,
            "longitude": 2.900832613270154,
            "power_kw": 22
        },
        {
            "name": "PowerDot - Spar - Fitou",
            "latitude": 42.894564788977874,
            "longitude": 2.993406377765723,
            "power_kw": 22
        },
        {
            "name": "PowerDot - KFC - Narbonne",
            "latitude": 43.172742394108894,
            "longitude": 2.9923023593727294,
            "power_kw": 22
        },
        {
            "name": "PowerDot - U Utile - Homps",
            "latitude": 43.26560537170511,
            "longitude": 2.717176830728249,
            "power_kw": 22
        },
        {
            "name": "PowerDot - Mr. Bricolage - Limoux",
            "latitude": 43.072358327828766,
            "longitude": 2.2218014999680236,
            "power_kw": 50
        },
        {
            "name": "PowerDot - Maison du Monde - Pamiers",
            "latitude": 43.09936969078194,
            "longitude": 1.6243353055599528,
            "power_kw": 160
        },
        {
            "name": "PowerDot - Mr. Bricolage - Pamiers",
            "latitude": 43.104544281377684,
            "longitude": 1.6303527597318634,
            "power_kw": 22
        },
        {
            "name": "PowerDot - La Boucherie - Pamiers",
            "latitude": 43.114176313869194,
            "longitude": 1.6299360803611762,
            "power_kw": 22
        },
        {
            "name": "PowerDot - Super U - Martres-Tolosane",
            "latitude": 43.19584309023517,
            "longitude": 1.0013878886476277,
            "power_kw": 22
        },
        {
            "name": "PowerDot - Bricomarch\u00e9 - Estancarbon",
            "latitude": 43.11536415019603,
            "longitude": 0.7598502657153858,
            "power_kw": 22
        },
        {
            "name": "PowerDot - Intermarch\u00e9 Super - Capvern",
            "latitude": 43.112107152231744,
            "longitude": 0.3549978183866642,
            "power_kw": 100
        },
        {
            "name": "PowerDot - Gamm Vert - Lourdes",
            "latitude": 43.11541113536529,
            "longitude": -0.031656045423801515,
            "power_kw": 22
        },
        {
            "name": "PowerDot - Netto - Lourdes",
            "latitude": 43.10855134624657,
            "longitude": -0.0389633554050306,
            "power_kw": 22
        },
        {
            "name": "PowerDot - Buffalo Grill - Tarbes",
            "latitude": 43.21907442326946,
            "longitude": 0.07942358705076913,
            "power_kw": 150
        },
        {
            "name": "PowerDot - Boulangerie Feuillette - Lons",
            "latitude": 43.32939992192743,
            "longitude": -0.3853715038325163,
            "power_kw": 22
        },
        {
            "name": "PowerDot - Brit Hotel - Pau",
            "latitude": 43.31291121755265,
            "longitude": -0.41592557808030506,
            "power_kw": 22
        },
        {
            "name": "PowerDot - Gamm Vert - Gan",
            "latitude": 43.21962606157541,
            "longitude": -0.39989959895615357,
            "power_kw": 22
        },
        {
            "name": "PowerDot - Gamm Vert - Oloron",
            "latitude": 43.179023623160845,
            "longitude": -0.6142510585046921,
            "power_kw": 22
        },
        {
            "name": "PowerDot - Greet H\u00f4tel Orthez Bearn - Biron",
            "latitude": 43.46687172549696,
            "longitude": -0.7514621961278181,
            "power_kw": 160
        },
        {
            "name": "PowerDot - Gamm Vert - Orthez",
            "latitude": 43.487748087024386,
            "longitude": -0.7802293250886123,
            "power_kw": 22
        },
        {
            "name": "PowerDot - Gamm Vert & Mr. Bricolage - Hasparren",
            "latitude": 43.382003412553274,
            "longitude": -1.3155219332552406,
            "power_kw": 22
        },
        {
            "name": "PowerDot - Gamm Vert & Mr. Bricolage - Cambo",
            "latitude": 43.35547715409723,
            "longitude": -1.4138055279216815,
            "power_kw": 22
        },
        {
            "name": "PowerDot - Boulangerie Ange - Tarnos",
            "latitude": 43.52779078212171,
            "longitude": -1.4635859285749575,
            "power_kw": 22
        },
        {
            "name": "PowerDot - Gamm Vert - Soustons",
            "latitude": 43.74594948855585,
            "longitude": -1.3328229049681113,
            "power_kw": 22
        },
        {
            "name": "PowerDot - Netto - Soustons",
            "latitude": 43.74700789971365,
            "longitude": -1.3220241676652904,
            "power_kw": 160
        },
        {
            "name": "PowerDot - Esso - Saint-Geours-de-Maremne",
            "latitude": 43.71271165164242,
            "longitude": -1.2317737208632025,
            "power_kw": 22
        },
        {
            "name": "PowerDot - Mr. Bricolage - Hagetmau",
            "latitude": 43.637337921611646,
            "longitude": -0.6119244426132582,
            "power_kw": 22
        },
        {
            "name": "PowerDot - Bricomarch\u00e9 - Aire-sur-l'Adour",
            "latitude": 43.73259392522033,
            "longitude": -0.2666749425443413,
            "power_kw": 22
        },
        {
            "name": "PowerDot - Jardiland - Saint-Pierre-du-Mont",
            "latitude": 43.87304479666929,
            "longitude": -0.49157227088255695,
            "power_kw": 22
        },
        {
            "name": "PowerDot - Biocoop - Mont-de-Marsan",
            "latitude": 43.88712715890438,
            "longitude": -0.48856693520997396,
            "power_kw": 22
        },
        {
            "name": "PowerDot - Gamm Vert - Morcenx",
            "latitude": 44.029898775403524,
            "longitude": -0.9224326363141699,
            "power_kw": 22
        },
        {
            "name": "PowerDot - Carrefour Market - Mimizan",
            "latitude": 44.19325188649279,
            "longitude": -1.2285358512488074,
            "power_kw": 22
        },
        {
            "name": "PowerDot - Netto - La R\u00e9ole",
            "latitude": 44.5877333453835,
            "longitude": -0.03314310046016544,
            "power_kw": 22
        },
        {
            "name": "PowerDot - Le March\u00e9 de L\u00e9opold - Langon",
            "latitude": 44.54429760771927,
            "longitude": -0.2428835442124182,
            "power_kw": 22
        },
        {
            "name": "PowerDot - Super U - Podensac",
            "latitude": 44.655628734594785,
            "longitude": -0.364684554112614,
            "power_kw": 22
        },
        {
            "name": "Tesla Supercharger S\u00e9m\u00e9ac",
            "latitude": 43.22878560359737,
            "longitude": 0.09602887416380668,
            "power_kw": 250
        },
        {
            "name": "PowerDot - Lidl - Biganos",
            "latitude": 44.64140174335367,
            "longitude": -0.9534659856782355,
            "power_kw": 22
        },
        {
            "name": "PowerDot - Centre E. Leclerc - La Teste-de-Buch",
            "latitude": 44.613719759681885,
            "longitude": -1.1174105743514247,
            "power_kw": 50
        },
        {
            "name": "PowerDot - Carrefour Market - Hourtin",
            "latitude": 45.18697860694044,
            "longitude": -1.0542838392204885,
            "power_kw": 22
        },
        {
            "name": "PowerDot - Carrefour Contact - Carcans",
            "latitude": 45.078835327111136,
            "longitude": -1.0370613331879213,
            "power_kw": 22
        },
        {
            "name": "PowerDot - Carrefour Contact - L\u00e8ge-Cap-Ferret",
            "latitude": 44.790245873359,
            "longitude": -1.1463069626877314,
            "power_kw": 22
        },
        {
            "name": "PowerDot - Carrefour Contact - Lacanau",
            "latitude": 45.00001312941575,
            "longitude": -1.1994263400645195,
            "power_kw": 22
        },
        {
            "name": "PowerDot - Intermarch\u00e9 - Pugnac",
            "latitude": 45.07633105620491,
            "longitude": -0.4991657785485586,
            "power_kw": 160
        },
        {
            "name": "PowerDot - Relai des Portes - Le Pian-M\u00e9doc",
            "latitude": 44.954180621712254,
            "longitude": -0.6295156019357364,
            "power_kw": 100
        },
        {
            "name": "PowerDot - Restaurant Chez Le Brasseur - Sainte-Eulalie",
            "latitude": 44.90166215024723,
            "longitude": -0.4917545355621087,
            "power_kw": 22
        },
        {
            "name": "PowerDot - Carrefour Market - Bordeaux",
            "latitude": 44.8602929716057,
            "longitude": -0.6341614188595486,
            "power_kw": 160
        },
        {
            "name": "PowerDot - Ibis Budget - Villenave-d'Ornon",
            "latitude": 44.77688570839592,
            "longitude": -0.5708413480533636,
            "power_kw": 22
        },
        {
            "name": "PowerDot - La Cage Brasserie Sportive - B\u00e8gles",
            "latitude": 44.78948571746801,
            "longitude": -0.5336502181498872,
            "power_kw": 50
        },
        {
            "name": "PowerDot - Centre Commercial Bois Bersol - Pessac",
            "latitude": 44.78453632417313,
            "longitude": -0.6380235659111122,
            "power_kw": 200
        },
        {
            "name": "PowerDot - Urban Soccer - Pessac",
            "latitude": 44.77846373160443,
            "longitude": -0.644560368916359,
            "power_kw": 22
        },
        {
            "name": "PowerDot - Restaurant La Villa Bersol - Gradignan",
            "latitude": 44.77449718994072,
            "longitude": -0.641039269736325,
            "power_kw": 22
        },
        {
            "name": "PowerDot - Super U - L\u00e9ognan",
            "latitude": 44.73292847192343,
            "longitude": -0.599523766023708,
            "power_kw": 22
        },
        {
            "name": "PowerDot - E.Leclerc - Libourne",
            "latitude": 44.92871192787837,
            "longitude": -0.24027552265454233,
            "power_kw": 22
        },
        {
            "name": "PowerDot - Ibis Budget - Libourne",
            "latitude": 44.94699214557852,
            "longitude": -0.24367906756856428,
            "power_kw": 22
        },
        {
            "name": "PowerDot - Super U - Saint-Seurin-sur-l'Isle",
            "latitude": 45.01461281371641,
            "longitude": -0.013042197786035103,
            "power_kw": 50
        },
        {
            "name": "PowerDot - Super U - Saint-M\u00e9dard-de-Mussidan",
            "latitude": 45.04137006798294,
            "longitude": 0.35114204050466924,
            "power_kw": 22
        },
        {
            "name": "PowerDot - Culture V\u00e9lo - Boulazac",
            "latitude": 45.18418838503638,
            "longitude": 0.763997948436554,
            "power_kw": 50
        },
        {
            "name": "PowerDot - Marie Blach\u00e8re - Terrasson-Lavilledieu",
            "latitude": 45.128310792529646,
            "longitude": 1.3161480767014382,
            "power_kw": 22
        },
        {
            "name": "PowerDot - Mercure - Lyon L'Isle-d'Abeau",
            "latitude": 45.62719413898395,
            "longitude": 5.166900054356688,
            "power_kw": 200
        },
        {
            "name": "PowerDot - Intermarch\u00e9 - N\u00e9ris-les-Bains",
            "latitude": 46.28842492834062,
            "longitude": 2.661673551549484,
            "power_kw": 22
        },
        {
            "name": "PowerDot - King Jouet - Mozac",
            "latitude": 45.88925431193576,
            "longitude": 3.0736110762449016,
            "power_kw": 22
        },
        {
            "name": "PowerDot - Bricomarch\u00e9 - Riom",
            "latitude": 45.878324432630365,
            "longitude": 3.118757839236764,
            "power_kw": 160
        },
        {
            "name": "PowerDot - Intermarch\u00e9 - Pont-du-Ch\u00e2teau",
            "latitude": 45.80013619180045,
            "longitude": 3.2424147491283293,
            "power_kw": 160
        },
        {
            "name": "PowerDot - H\u00f4tel F1 - Clermont-Ferrand",
            "latitude": 45.785666113334145,
            "longitude": 3.140587777003475,
            "power_kw": 160
        },
        {
            "name": "PowerDot - Centre Commercial La Pardieu - Clermont-Ferrand",
            "latitude": 45.76506493268283,
            "longitude": 3.1272630233783048,
            "power_kw": 150
        },
        {
            "name": "PowerDot - Poltronesofa - Aubi\u00e8re",
            "latitude": 45.75669626341971,
            "longitude": 3.1276998204994015,
            "power_kw": 22
        },
        {
            "name": "PowerDot - Kyriad - Clermont-Ferrand Sud La Pardieu",
            "latitude": 45.76051199701985,
            "longitude": 3.142223148153107,
            "power_kw": 150
        },
        {
            "name": "PowerDot - Intersport - Clermont-Ferrand",
            "latitude": 45.75820508336085,
            "longitude": 3.1475781712114212,
            "power_kw": 22
        },
        {
            "name": "PowerDot - Le G\u00e9ant du Meuble Cavagna - Aubi\u00e8re",
            "latitude": 45.7547346313107,
            "longitude": 3.1498260610593434,
            "power_kw": 22
        },
        {
            "name": "PowerDot - Carrefour Market - La Monnerie-le-Montel",
            "latitude": 45.86801737478942,
            "longitude": 3.632600094983218,
            "power_kw": 22
        },
        {
            "name": "PowerDot - Intermarch\u00e9 - Noir\u00e9table",
            "latitude": 45.82211287740782,
            "longitude": 3.7648321189177523,
            "power_kw": 100
        },
        {
            "name": "PowerDot - KFC - Roanne Mably",
            "latitude": 46.066292426349065,
            "longitude": 4.056077119705606,
            "power_kw": 22
        },
        {
            "name": "PowerDot - Roady - Perreux",
            "latitude": 46.029201939626404,
            "longitude": 4.095982606099483,
            "power_kw": 22
        },
        {
            "name": "PowerDot - Ibis - Lyon Villefranche sur Sa\u00f4ne",
            "latitude": 45.97622190423206,
            "longitude": 4.738580297600606,
            "power_kw": 160
        },
        {
            "name": "PowerDot - Escatel Hotel - M\u00e2con",
            "latitude": 46.31583899860732,
            "longitude": 4.823736557001212,
            "power_kw": 22
        },
        {
            "name": "PowerDot - Ibis Styles - M\u00e2con",
            "latitude": 46.303361657136804,
            "longitude": 4.82713822178016,
            "power_kw": 22
        },
        {
            "name": "PowerDot - Boulanger - M\u00e2con Sud",
            "latitude": 46.2862100449544,
            "longitude": 4.808977915503988,
            "power_kw": 22
        },
        {
            "name": "PowerDot - Ibis Budget - Macon Sud",
            "latitude": 46.28142398761821,
            "longitude": 4.8046702313754395,
            "power_kw": 22
        },
        {
            "name": "PowerDot - Ibis - Chaintr\u00e9",
            "latitude": 46.2545584314868,
            "longitude": 4.7902117300778855,
            "power_kw": 100
        },
        {
            "name": "PowerDot - Mr. Bricolage - Ch\u00e2tillon-sur-Chalaronne",
            "latitude": 46.11604026736754,
            "longitude": 4.96393106324615,
            "power_kw": 160
        },
        {
            "name": "PowerDot - Intermarch\u00e9 - Servas",
            "latitude": 46.128413069651174,
            "longitude": 5.162554264056325,
            "power_kw": 160
        },
        {
            "name": "PowerDot - Intermarch\u00e9 - Bourg-en-Bresse",
            "latitude": 46.19563964582716,
            "longitude": 5.229263577263623,
            "power_kw": 160
        },
        {
            "name": "PowerDot - Pizza & Pasta - Bourg-en-Bresse",
            "latitude": 46.20002283401138,
            "longitude": 5.2473969377357434,
            "power_kw": 22
        },
        {
            "name": "PowerDot - Centre Commercial La Neuve - Viriat",
            "latitude": 46.2149172333032,
            "longitude": 5.213494994965117,
            "power_kw": 22
        },
        {
            "name": "PowerDot - Marie Blach\u00e8re - Oyonnax",
            "latitude": 46.26733474641935,
            "longitude": 5.655730407652982,
            "power_kw": 22
        },
        {
            "name": "PowerDot - Grand Frais - Choisey",
            "latitude": 47.061991116745986,
            "longitude": 5.452519591626697,
            "power_kw": 22
        },
        {
            "name": "PowerDot - Super U - Bans (39)",
            "latitude": 46.98470368865915,
            "longitude": 5.590912325473255,
            "power_kw": 22
        },
        {
            "name": "PowerDot - Ibis Budget - Lons-le-Saunier",
            "latitude": 46.6942257864379,
            "longitude": 5.557280001934487,
            "power_kw": 22
        },
        {
            "name": "PowerDot - Action - Louhans",
            "latitude": 46.638368920365195,
            "longitude": 5.212606749309316,
            "power_kw": 22
        },